[
  {
    "location": "Alingsås",
    "region": "Västra Götalands län",
    "organizer": [
      "Vänsterpartiet"
    ],
    "time": "10:00",
    "startPoint": "Folkets hus",
    "address": "Norra Strömgatan 9",
    "details": "09:30 Samling utanför Folkets Hus\n10:00 Demonstrationståget avgår\n10:30 Avslutning på Åmanska parken med tal och musik. Aktiviteter för alla barn med ansiktsmålning, fiskedamm, ballonger och popcornmaskin\n",
    "speakers": [
      "Hanna Gedin (V) - Eu-parlamentariker",
      "Sanna Dabolins (V) - Gruppledare",
      "Maria Adrell (V) - Regionråd",
      "Nemo Lundberg - Ung Vänster",
      "Sten-Åke Kjell - ABF"
    ],
    "link": "https://www.facebook.com/events/4104534136533517/",
    "lat": 57.929069487073214,
    "lon": 12.536473274230959
  },
  {
    "location": "Avesta",
    "region": "Dalarnas län",
    "organizer": [
      "Vänsterpartiet"
    ],
    "time": "11:00",
    "startPoint": "Kungsgatan 14",
    "address": "Kungsgatan 14",
    "details": null,
    "speakers": null,
    "link": null,
    "lat": 60.14558535279755,
    "lon": 16.16919279098511
  },
  {
    "location": "Boden",
    "region": "Norrbottens län",
    "organizer": [
      "Vänsterpartiet"
    ],
    "time": "11:00",
    "startPoint": "Stora Coop",
    "address": null,
    "details": null,
    "speakers": null,
    "link": null,
    "lat": 65.82500067071196,
    "lon": 21.68508052825928
  },
  {
    "location": "Bollnäs",
    "region": "Gävleborgs län",
    "organizer": [
      "Vänsterpartiet"
    ],
    "time": "10:30",
    "startPoint": "Onbacken",
    "address": null,
    "details": null,
    "speakers": null,
    "link": null,
    "lat": 61.350873726517484,
    "lon": 16.39696598052979
  },
  {
    "location": "Borlänge",
    "region": "Dalarnas län",
    "organizer": [
      "Vänsterpartiet"
    ],
    "time": "11:00",
    "startPoint": "Ängsplan, Bullermyren",
    "address": null,
    "details": null,
    "speakers": null,
    "link": null,
    "lat": 60.49725646350129,
    "lon": 15.413560867309572
  },
  {
    "location": "Borås",
    "region": "Västra Götalands län",
    "organizer": [
      "Vänsterpartiet"
    ],
    "time": "10:30",
    "startPoint": "Stadsparken",
    "address": "Sven Eriksonsgatan",
    "details": null,
    "speakers": null,
    "link": "https://www.facebook.com/events/4157658577851480/",
    "lat": 57.71893360636074,
    "lon": 12.93970584869385
  },
  {
    "location": "Eksjö",
    "region": "Jönköpings län",
    "organizer": [
      "Vänsterpartiet"
    ],
    "time": "10:30",
    "startPoint": "Stora torget",
    "address": null,
    "details": null,
    "speakers": null,
    "link": null,
    "lat": 57.66664991458189,
    "lon": 14.97089982032776
  },
  {
    "location": "Enköping",
    "region": "Uppsala län",
    "organizer": [
      "Vänsterpartiet"
    ],
    "time": "11:00",
    "startPoint": "Spanska trappan",
    "address": null,
    "details": null,
    "speakers": null,
    "link": "https://www.facebook.com/events/1183938282943595",
    "lat": 59.63629481505951,
    "lon": 17.079695463180546
  },
  {
    "location": "Eskilstuna",
    "region": "Södermanlands län",
    "organizer": [
      "Vänsterpartiet"
    ],
    "time": "11:30",
    "startPoint": "Järntorget",
    "address": null,
    "details": null,
    "speakers": null,
    "link": "https://www.facebook.com/events/9606805019406110/",
    "lat": 59.366181624427526,
    "lon": 16.508871731084792
  },
  {
    "location": "Falkenberg",
    "region": "Hallands län",
    "organizer": [
      "Vänsterpartiet"
    ],
    "time": "11:00",
    "startPoint": "Rörbecksplatsen",
    "address": null,
    "details": null,
    "speakers": null,
    "link": "https://www.facebook.com/events/1386130102404471/",
    "lat": 56.90457363900566,
    "lon": 12.491068840026855
  },
  {
    "location": "Falköping",
    "region": "Västra Götalands län",
    "organizer": [
      "Vänsterpartiet"
    ],
    "time": "18:00",
    "startPoint": "Amfiteatern, Plantis",
    "address": null,
    "details": null,
    "speakers": null,
    "link": "https://fb.me/e/ivdR1TYJQ",
    "lat": 58.16726208032331,
    "lon": 13.55193614959717
  },
  {
    "location": "Gnosjö",
    "region": "Jönköpings län",
    "organizer": [
      "Vänsterpartiet"
    ],
    "time": "10:00",
    "startPoint": "Hammargården",
    "address": null,
    "details": null,
    "speakers": null,
    "link": null,
    "lat": 57.354381617153344,
    "lon": 13.739787340164186
  },
  {
    "location": "Gällivare",
    "region": "Norrbottens län",
    "organizer": [
      "Vänsterpartiet"
    ],
    "time": "13:00",
    "startPoint": "Folkets Hus",
    "address": null,
    "details": null,
    "speakers": null,
    "link": null,
    "lat": 67.136507,
    "lon": 20.658801
  },
  {
    "location": "Gävle",
    "region": "Gävleborgs län",
    "organizer": [
      "Vänsterpartiet"
    ],
    "time": "12:30",
    "startPoint": "Södermalmstorg",
    "address": "Stortorget",
    "details": "13:00 Stortorget",
    "speakers": null,
    "link": "https://gavleborg.vansterpartiet.se/2025/04/23/1-maj-2025-alla-ska-ha-rad/",
    "lat": 60.67013058914183,
    "lon": 17.14824199676514
  },
  {
    "location": "Göteborg",
    "region": "Västra Götalands län",
    "organizer": [
      "Vänsterpartiet"
    ],
    "time": "13:30",
    "startPoint": "Andra Långgatan",
    "address": null,
    "details": "15:30 Torgmöte på Gustav Adolfs torg",
    "speakers": null,
    "link": "https://www.facebook.com/events/1172160260952883/",
    "lat": 57.698972,
    "lon": 11.946667
  },
  {
    "location": "Hagfors",
    "region": "Värmlands län",
    "organizer": [
      "Vänsterpartiet",
      "Socialdemokraterna",
      "LO",
      "IF Metall"
    ],
    "time": "12:00",
    "startPoint": "Blinkebergsparken",
    "address": null,
    "details": "Blinkenbergsparken klockan 12-15. Vi bjuder på korv, hamburgare, popcorn och dricka samt tal",
    "speakers": null,
    "link": "https://varmland.vansterpartiet.se/2025/04/15/dags-for-forsta-maj/",
    "lat": 60.037537558443454,
    "lon": 13.695316314697267
  },
  {
    "location": "Halmstad",
    "region": "Hallands län",
    "organizer": [
      "Vänsterpartiet"
    ],
    "time": "12:15",
    "startPoint": "Kapsylparken",
    "address": null,
    "details": null,
    "speakers": [
      "Andrea Andersson Tay",
      "Mikael Ekfeldt",
      "Lena Ludvigsson"
    ],
    "link": "https://www.facebook.com/events/976500217594839/",
    "lat": 56.6747211632134,
    "lon": 12.861363887786867
  },
  {
    "location": "Haparanda",
    "region": "Norrbottens län",
    "organizer": [
      "Vänsterpartiet"
    ],
    "time": "11:00",
    "startPoint": "Storgatan 80",
    "address": "Storgatan 80",
    "details": null,
    "speakers": null,
    "link": null,
    "lat": 65.83622858422436,
    "lon": 24.13867950439453
  },
  {
    "location": "Helsingborg",
    "region": "Skåne län",
    "organizer": [
      "Vänsterpartiet"
    ],
    "time": "14:30",
    "startPoint": "Stortorget",
    "address": null,
    "details": null,
    "speakers": null,
    "link": "https://www.facebook.com/events/649289471230653",
    "lat": 56.04675056189231,
    "lon": 12.694787979125977
  },
  {
    "location": "Hudiksvall",
    "region": "Gävleborgs län",
    "organizer": [
      "Vänsterpartiet"
    ],
    "time": "10:45",
    "startPoint": "Rådhusparken",
    "address": null,
    "details": null,
    "speakers": [
      "Samuel Gonzalez Westling",
      "Hannes Hassel",
      "Henric Zacco - Hudik för Palestina"
    ],
    "link": "https://www.facebook.com/events/1390741382062520/",
    "lat": 61.72796932097205,
    "lon": 17.1103048324585
  },
  {
    "location": "Hultsfred",
    "region": "Kalmar län",
    "organizer": [
      "Vänsterpartiet"
    ],
    "time": "10:00",
    "startPoint": "Stora Torget",
    "address": null,
    "details": null,
    "speakers": null,
    "link": null,
    "lat": 57.486909410646504,
    "lon": 15.840654373168947
  },
  {
    "location": "Hässleholm",
    "region": "Skåne län",
    "organizer": [
      "Vänsterpartiet"
    ],
    "time": "10:00",
    "startPoint": "Hembygdsparken",
    "address": null,
    "details": null,
    "speakers": [
      "Lisa Cleasson",
      "Magnus Åkeborn"
    ],
    "link": "https://skane.vansterpartiet.se/event/1-maj-runt-i-skane",
    "lat": 56.155398127814955,
    "lon": 13.771877288818361
  },
  {
    "location": "Jönköping",
    "region": "Jönköpings län",
    "organizer": [
      "Vänsterpartiet"
    ],
    "time": "12:30",
    "startPoint": "Rådhusparken",
    "address": null,
    "details": null,
    "speakers": [
      "Malin Östh",
      "Julia Löf",
      "Marianne Ericsson - ABF"
    ],
    "link": "https://www.facebook.com/events/1885898795148334/",
    "lat": 57.7825,
    "lon": 14.166667
  },
  {
    "location": "Karlskrona",
    "region": "Blekinge län",
    "organizer": [
      "Vänsterpartiet"
    ],
    "time": "10:30",
    "startPoint": "Järnvägsstationen",
    "address": null,
    "details": null,
    "speakers": null,
    "link": null,
    "lat": 56.16641946670083,
    "lon": 15.586037635803224
  },
  {
    "location": "Karlstad",
    "region": "Värmlands län",
    "organizer": [
      "Vänsterpartiet"
    ],
    "time": "11:00",
    "startPoint": "Stora torget",
    "address": null,
    "details": null,
    "speakers": [
      "Elisabeth Björk",
      "Siri Hasting",
      "m.fl"
    ],
    "link": "https://varmland.vansterpartiet.se/2025/04/15/dags-for-forsta-maj/",
    "lat": 59.38080811466542,
    "lon": 13.502798080444338
  },
  {
    "location": "Katrineholm",
    "region": "Södermanlands län",
    "organizer": [
      "Vänsterpartiet"
    ],
    "time": "13:00",
    "startPoint": "Stationsplan",
    "address": null,
    "details": null,
    "speakers": null,
    "link": "https://www.facebook.com/events/651192211137566",
    "lat": 58.99718462443037,
    "lon": 16.20793461799622
  },
  {
    "location": "Kiruna",
    "region": "Norrbottens län",
    "organizer": [
      "Vänsterpartiet"
    ],
    "time": "11:00",
    "startPoint": "Stadshuset",
    "address": null,
    "details": null,
    "speakers": null,
    "link": null,
    "lat": 67.84893841786099,
    "lon": 20.302794457529675
  },
  {
    "location": "Klippan",
    "region": "Skåne län",
    "organizer": [
      "Vänsterpartiet"
    ],
    "time": "10:00",
    "startPoint": "Allétorget",
    "address": null,
    "details": null,
    "speakers": null,
    "link": "https://skane.vansterpartiet.se/event/1-maj-runt-i-skane",
    "lat": 56.13676249088143,
    "lon": 13.131000995635986
  },
  {
    "location": "Knivsta",
    "region": "Uppsala län",
    "organizer": [
      "Vänsterpartiet"
    ],
    "time": "10:00",
    "startPoint": "Sågverkstorget",
    "address": null,
    "details": null,
    "speakers": null,
    "link": "https://knivsta.vansterpartiet.se/event/forsta-maj-2/",
    "lat": 59.72622972475129,
    "lon": 17.789783477783207
  },
  {
    "location": "Kramfors",
    "region": "Västernorrlands län",
    "organizer": [
      "Vänsterpartiet"
    ],
    "time": "11:30",
    "startPoint": "Posttorget",
    "address": null,
    "details": null,
    "speakers": null,
    "link": null,
    "lat": 62.9308411079353,
    "lon": 17.781269073748266
  },
  {
    "location": "Kristinehamn",
    "region": "Värmlands län",
    "organizer": [
      "Vänsterpartiet"
    ],
    "time": "13:00",
    "startPoint": "Stadsparken",
    "address": null,
    "details": "Först gemensamt demonstrationståg med S",
    "speakers": null,
    "link": "https://varmland.vansterpartiet.se/2025/04/15/dags-for-forsta-maj/",
    "lat": 59.30980420203643,
    "lon": 14.101381301879885
  },
  {
    "location": "Krokom",
    "region": "Jämtlands län",
    "organizer": [
      "Vänsterpartiet"
    ],
    "time": "09:00",
    "startPoint": "Hissmofors Folkets hus",
    "address": "Folketshusvägen 1",
    "details": null,
    "speakers": null,
    "link": null,
    "lat": 63.3278,
    "lon": 14.478281
  },
  {
    "location": "Laholm",
    "region": "Hallands län",
    "organizer": [
      "Vänsterpartiet"
    ],
    "time": "13:00",
    "startPoint": "Stadsparken",
    "address": null,
    "details": null,
    "speakers": null,
    "link": "https://www.facebook.com/events/1171149504326312/",
    "lat": 56.5083652875856,
    "lon": 13.044891357421875
  },
  {
    "location": "Landskrona",
    "region": "Skåne län",
    "organizer": [
      "Vänsterpartiet"
    ],
    "time": "13:00",
    "startPoint": "Rådhustorget",
    "address": null,
    "details": null,
    "speakers": null,
    "link": "https://www.facebook.com/events/583050767399599",
    "lat": 55.87035702136485,
    "lon": 12.830228805541992
  },
  {
    "location": "Leksand",
    "region": "Dalarnas län",
    "organizer": [
      "Vänsterpartiet"
    ],
    "time": "12:00",
    "startPoint": "ABF, Hantverkaregatan 5 B",
    "address": "Hantverkaregatan 5B",
    "details": null,
    "speakers": null,
    "link": null,
    "lat": 60.7313605266496,
    "lon": 14.999494314324693
  },
  {
    "location": "Lidköping",
    "region": "Västra Götalands län",
    "organizer": [
      "Socialdemokraterna",
      "LO",
      "SSU",
      "Vänsterpartiet",
      "Miljöpartiet"
    ],
    "time": "12:00",
    "startPoint": "Torget",
    "address": "Nya Stadens Torg",
    "details": null,
    "speakers": null,
    "link": "https://fb.me/e/8mVXFXMSZ",
    "lat": 58.503597,
    "lon": 13.157558
  },
  {
    "location": "Lindesberg",
    "region": "Örebro län",
    "organizer": [
      "Vänsterpartiet"
    ],
    "time": "11:00",
    "startPoint": "Flugparken",
    "address": null,
    "details": null,
    "speakers": null,
    "link": "https://www.facebook.com/events/2201086583639452",
    "lat": 59.59415654243455,
    "lon": 15.227406978738149
  },
  {
    "location": "Linköping",
    "region": "Östergötlands län",
    "organizer": [
      "Vänsterpartiet"
    ],
    "time": "13:30",
    "startPoint": "Konsert & Kongress",
    "address": null,
    "details": null,
    "speakers": null,
    "link": null,
    "lat": 58.41437459995739,
    "lon": 15.61460208919016
  },
  {
    "location": "Ljungby",
    "region": "Kronobergs län",
    "organizer": [
      "Vänsterpartiet"
    ],
    "time": "15:00",
    "startPoint": "Eskilsgården, Gamla torg",
    "address": "Gamla Torg",
    "details": null,
    "speakers": null,
    "link": "https://kronoberg.vansterpartiet.se/event/1-maj-i-kronoberg",
    "lat": 56.833194,
    "lon": 13.932
  },
  {
    "location": "Ljusnarsberg",
    "region": "Örebro län",
    "organizer": [
      "Vänsterpartiet"
    ],
    "time": "11:00",
    "startPoint": "Malmtorget, Kopparberg",
    "address": "Malmtorget, Kopparberg",
    "details": null,
    "speakers": null,
    "link": null,
    "lat": 59.87573120052184,
    "lon": 14.996363640093481
  },
  {
    "location": "Ljusdal",
    "region": "Gävleborgs län",
    "organizer": [
      "Vänsterpartiet",
      "Socialdemokraterna",
      "Kommunal",
      "ABF"
    ],
    "time": "11:00",
    "startPoint": "Riotorget",
    "address": null,
    "details": null,
    "speakers": null,
    "link": "https://www.facebook.com/events/1044854317512646",
    "lat": 61.829514228150636,
    "lon": 16.090164184570316
  },
  {
    "location": "Luleå",
    "region": "Norrbottens län",
    "organizer": [
      "Vänsterpartiet"
    ],
    "time": "12:00",
    "startPoint": "Kulturens Hus",
    "address": null,
    "details": null,
    "speakers": null,
    "link": null,
    "lat": 65.5861546070055,
    "lon": 22.151750565099064
  },
  {
    "location": "Lund",
    "region": "Skåne län",
    "organizer": [
      "Vänsterpartiet"
    ],
    "time": "14:00",
    "startPoint": "Stortorget",
    "address": null,
    "details": null,
    "speakers": [
      "Helena Falk",
      "Sara Güll - Ung Vänster"
    ],
    "link": "https://skane.vansterpartiet.se/event/1-maj-runt-i-skane",
    "lat": 55.702811,
    "lon": 13.193031
  },
  {
    "location": "Lysekil",
    "region": "Västra Götalands län",
    "organizer": [
      "Vänsterpartiet"
    ],
    "time": "11:00",
    "startPoint": "Stadsparken",
    "address": null,
    "details": null,
    "speakers": null,
    "link": null,
    "lat": 58.27394046758395,
    "lon": 11.434823513554877
  },
  {
    "location": "Lycksele",
    "region": "Västerbottens län",
    "organizer": [
      "Vänsterpartiet"
    ],
    "time": "12:00",
    "startPoint": "Stora bron",
    "address": null,
    "details": null,
    "speakers": [
      "Peter Olofsson"
    ],
    "link": "https://vasterbotten.vansterpartiet.se/2025/04/25/har-kan-du-fira-1-maj-i-lanet/",
    "lat": 64.59045726913777,
    "lon": 18.686834337422624
  },
  {
    "location": "Malmö",
    "region": "Skåne län",
    "organizer": [
      "Vänsterpartiet"
    ],
    "time": "13:00",
    "startPoint": "Möllevångstorget",
    "address": null,
    "details": null,
    "speakers": [
      "Anfal Mahdi",
      "Patrik Persson - Transport avd 12",
      "Alex Mulinari - Ung Vänster",
      "Hedvig Halldenius - Ung Vänster",
      "Nabil Abdulmajid - Palestinska arbetsgruppen södra Sverige"
    ],
    "link": "https://www.facebook.com/events/1377316496783737/",
    "lat": 55.59156973769762,
    "lon": 13.008184790742234
  },
  {
    "location": "Malå",
    "region": "Västerbottens län",
    "organizer": [
      "Vänsterpartiet"
    ],
    "time": "14:00",
    "startPoint": "Forum",
    "address": null,
    "details": null,
    "speakers": [
      "Lennart Gustavsson"
    ],
    "link": null,
    "lat": 65.18358845354462,
    "lon": 18.741783142613716
  },
  {
    "location": "Mark",
    "region": "Västra Götalands län",
    "organizer": [
      "Vänsterpartiet"
    ],
    "time": "10:30",
    "startPoint": "Kinnaborgssalen, Kinna",
    "address": null,
    "details": null,
    "speakers": null,
    "link": null,
    "lat": 57.50817575702076,
    "lon": 12.698064565920504
  },
  {
    "location": "Motala",
    "region": "Östergötlands län",
    "organizer": [
      "Vänsterpartiet"
    ],
    "time": "12:00",
    "startPoint": "Stora torget",
    "address": null,
    "details": null,
    "speakers": null,
    "link": null,
    "lat": 58.536559717970604,
    "lon": 15.037369251513159
  },
  {
    "location": "Mölndal",
    "region": "Västra Götalands län",
    "organizer": [
      "Vänsterpartiet"
    ],
    "time": "10:30",
    "startPoint": "Mölndals torg",
    "address": null,
    "details": "Ansluter Göteborg",
    "speakers": null,
    "link": "https://www.facebook.com/events/1392356505107456",
    "lat": 57.65594648739494,
    "lon": 12.014884472155249
  },
  {
    "location": "Nordmaling",
    "region": "Västerbottens län",
    "organizer": [
      "Vänsterpartiet"
    ],
    "time": "11:00",
    "startPoint": "Kommunparken",
    "address": null,
    "details": null,
    "speakers": null,
    "link": "https://vasterbotten.vansterpartiet.se/2025/04/25/har-kan-du-fira-1-maj-i-lanet/",
    "lat": 63.57,
    "lon": 19.5
  },
  {
    "location": "Norrköping",
    "region": "Östergötlands län",
    "organizer": [
      "Vänsterpartiet"
    ],
    "time": "10:45",
    "startPoint": "Skvallertorget",
    "address": null,
    "details": null,
    "speakers": null,
    "link": "https://www.facebook.com/events/1062750922551615/",
    "lat": 58.59043472026839,
    "lon": 16.178593397271474
  },
  {
    "location": "Nyköping",
    "region": "Södermanlands län",
    "organizer": [
      "Vänsterpartiet"
    ],
    "time": "13:00",
    "startPoint": "Teaterparken",
    "address": null,
    "details": null,
    "speakers": null,
    "link": null,
    "lat": 58.750605754898835,
    "lon": 17.001608849095646
  },
  {
    "location": "Orsa",
    "region": "Dalarnas län",
    "organizer": [
      "Vänsterpartiet"
    ],
    "time": "14:00",
    "startPoint": "Moraeusparken",
    "address": null,
    "details": null,
    "speakers": null,
    "link": "https://www.facebook.com/events/1868355540585494/",
    "lat": 61.120283335580616,
    "lon": 14.616541385912573
  },
  {
    "location": "Oxelösund",
    "region": "Södermanlands län",
    "organizer": [
      "Vänsterpartiet"
    ],
    "time": "12:00",
    "startPoint": "Järntorget",
    "address": null,
    "details": null,
    "speakers": [
      "Maria Forsberg",
      "Patrik Renfors"
    ],
    "link": "https://www.facebook.com/events/2219672738489063/",
    "lat": 58.66992044024615,
    "lon": 17.104262352513615
  },
  {
    "location": "Pajala",
    "region": "Norrbottens län",
    "organizer": [
      "Vänsterpartiet"
    ],
    "time": "11:00",
    "startPoint": "Malmen",
    "address": null,
    "details": null,
    "speakers": null,
    "link": null,
    "lat": 67.2108320635667,
    "lon": 23.367220402287792
  },
  {
    "location": "Piteå",
    "region": "Norrbottens län",
    "organizer": [
      "Vänsterpartiet"
    ],
    "time": "13:00",
    "startPoint": "Stadsberget",
    "address": null,
    "details": null,
    "speakers": null,
    "link": null,
    "lat": 65.31765418890049,
    "lon": 21.483236790227245
  },
  {
    "location": "Sala",
    "region": "Västmanlands län",
    "organizer": [
      "Vänsterpartiet"
    ],
    "time": "15:00",
    "startPoint": "Paviljongen, Stadsparken",
    "address": null,
    "details": null,
    "speakers": null,
    "link": null,
    "lat": 59.92168890757367,
    "lon": 16.598848343419377
  },
  {
    "location": "Simrishamn",
    "region": "Skåne län",
    "organizer": [
      "Vänsterpartiet"
    ],
    "time": "12:00",
    "startPoint": "Hamnplan",
    "address": null,
    "details": null,
    "speakers": [
      "Hanna Gunnarsson"
    ],
    "link": "https://skane.vansterpartiet.se/event/1-maj-runt-i-skane",
    "lat": 55.55758549653789,
    "lon": 14.35337162030919
  },
  {
    "location": "Sjöbo",
    "region": "Skåne län",
    "organizer": [
      "Vänsterpartiet"
    ],
    "time": "10:30",
    "startPoint": "Nya torg",
    "address": null,
    "details": null,
    "speakers": null,
    "link": "https://skane.vansterpartiet.se/event/1-maj-runt-i-skane",
    "lat": 55.6348762295806,
    "lon": 13.703402638566335
  },
  {
    "location": "Skellefteå",
    "region": "Västerbottens län",
    "organizer": [
      "Vänsterpartiet"
    ],
    "time": "13:30",
    "startPoint": "Nordanå",
    "address": null,
    "details": null,
    "speakers": null,
    "link": null,
    "lat": 64.74923945048128,
    "lon": 20.94132328085834
  },
  {
    "location": "Skurup",
    "region": "Skåne län",
    "organizer": [
      "Vänsterpartiet"
    ],
    "time": "11:00",
    "startPoint": "Torget",
    "address": null,
    "details": null,
    "speakers": null,
    "link": "https://skane.vansterpartiet.se/event/1-maj-runt-i-skane",
    "lat": 55.48,
    "lon": 13.5
  },
  {
    "location": "Skövde",
    "region": "Västra Götalands län",
    "organizer": [
      "Vänsterpartiet"
    ],
    "time": "14:00",
    "startPoint": "Helenaskolan",
    "address": null,
    "details": null,
    "speakers": [
      "Josefin Börjesson",
      "Evelina Åsgård",
      "Annika Holmén",
      "Ilona Szatmári Waldau"
    ],
    "link": "https://fb.me/e/2ptkWvi1o",
    "lat": 58.39103484917935,
    "lon": 13.850494980943044
  },
  {
    "location": "Smedjebacken",
    "region": "Dalarnas län",
    "organizer": [
      "Vänsterpartiet"
    ],
    "time": "11:30",
    "startPoint": "Torget",
    "address": null,
    "details": null,
    "speakers": null,
    "link": null,
    "lat": 60.14296826073575,
    "lon": 15.413676739262886
  },
  {
    "location": "Stockholm",
    "region": "Stockholms län",
    "organizer": [
      "Vänsterpartiet"
    ],
    "time": "12:00",
    "startPoint": "Medborgarplatsen",
    "address": null,
    "details": "14:00 Kungsträdgården",
    "speakers": null,
    "link": "https://www.facebook.com/events/685051597427148",
    "lat": 59.314973108422,
    "lon": 18.07217502646381
  },
  {
    "location": "Storuman",
    "region": "Västerbottens län",
    "organizer": [
      "Vänsterpartiet"
    ],
    "time": "12:00",
    "startPoint": "Akkan",
    "address": null,
    "details": null,
    "speakers": null,
    "link": "https://vasterbotten.vansterpartiet.se/2025/04/25/har-kan-du-fira-1-maj-i-lanet/",
    "lat": 65.0962212134963,
    "lon": 17.115141392278023
  },
  {
    "location": "Sundsvall",
    "region": "Västernorrlands län",
    "organizer": [
      "Vänsterpartiet"
    ],
    "time": "12:20",
    "startPoint": "Vängåvan",
    "address": null,
    "details": null,
    "speakers": null,
    "link": "https://www.facebook.com/events/1496326895106094",
    "lat": 62.39039927147954,
    "lon": 17.309290409612007
  },
  {
    "location": "Surahammar",
    "region": "Västmanlands län",
    "organizer": [
      "Vänsterpartiet"
    ],
    "time": "13:00",
    "startPoint": "Hembygdsgården",
    "address": null,
    "details": null,
    "speakers": null,
    "link": "https://www.facebook.com/events/1859412538193137/",
    "lat": 59.70993268802895,
    "lon": 16.215549946355168
  },
  {
    "location": "Säffle",
    "region": "Värmlands län",
    "organizer": [
      "Vänsterpartiet"
    ],
    "time": "15:00",
    "startPoint": "Kanalparken",
    "address": null,
    "details": null,
    "speakers": null,
    "link": "https://www.facebook.com/events/1355755055695114",
    "lat": 59.130224541445216,
    "lon": 12.923715592478406
  },
  {
    "location": "Södertälje",
    "region": "Stockholms län",
    "organizer": [
      "Vänsterpartiet"
    ],
    "time": "09:30",
    "startPoint": "Lekplatsen Stadsparken",
    "address": "Stora torget",
    "details": "10:00 Stora torget",
    "speakers": null,
    "link": "https://facebook.com/events/s/1-maj-med-vansterpartiet-soder/2077406136088162/",
    "lat": 59.19246071608284,
    "lon": 17.628108501958195
  },
  {
    "location": "Tranås",
    "region": "Jönköpings län",
    "organizer": [
      "Vänsterpartiet"
    ],
    "time": "14:00",
    "startPoint": "Lilla Sveagatan",
    "address": "Lilla Sveagatan 1 B",
    "details": null,
    "speakers": null,
    "link": null,
    "lat": 58.030327206623284,
    "lon": 14.971161604189547
  },
  {
    "location": "Trelleborg",
    "region": "Skåne län",
    "organizer": [
      "Vänsterpartiet"
    ],
    "time": "09:30",
    "startPoint": "Rådhustorget",
    "address": null,
    "details": null,
    "speakers": null,
    "link": "https://skane.vansterpartiet.se/event/1-maj-runt-i-skane",
    "lat": 55.37617229736282,
    "lon": 13.157494783663427
  },
  {
    "location": "Uddevalla",
    "region": "Västra Götalands län",
    "organizer": [
      "Vänsterpartiet"
    ],
    "time": "12:00",
    "startPoint": "Margeretegärdesparken",
    "address": null,
    "details": null,
    "speakers": null,
    "link": null,
    "lat": 58.350378270445084,
    "lon": 11.940072298311865
  },
  {
    "location": "Umeå",
    "region": "Västerbottens län",
    "organizer": [
      "Vänsterpartiet"
    ],
    "time": "13:30",
    "startPoint": "Döbelns park",
    "address": null,
    "details": null,
    "speakers": [
      "Jonas Sjöstedt",
      "Ebba Munter (Ung Vänster)",
      "Siula Grande (Vänsterstudenter Umeå)",
      "Berit Edvardsson (Vänsterpartiet Umeå)"
    ],
    "link": "https://www.facebook.com/events/4091685527826050/",
    "lat": 63.822906383393466,
    "lon": 20.270320416020695
  },
  {
    "location": "Uppsala",
    "region": "Uppsala län",
    "organizer": [
      "Vänsterpartiet"
    ],
    "time": "12:30",
    "startPoint": "Vaksala torg",
    "address": null,
    "details": null,
    "speakers": null,
    "link": null,
    "lat": 59.86167992131065,
    "lon": 17.647158623003634
  },
  {
    "location": "Vadstena",
    "region": "Östergötlands län",
    "organizer": [
      "Vänsterpartiet"
    ],
    "time": "15:00",
    "startPoint": "Folkets park",
    "address": null,
    "details": null,
    "speakers": null,
    "link": null,
    "lat": 58.44366792877769,
    "lon": 14.909236909006722
  },
  {
    "location": "Vilhelmina",
    "region": "Västerbottens län",
    "organizer": [
      "Vänsterpartiet"
    ],
    "time": "12:30",
    "startPoint": "Folkets hus",
    "address": null,
    "details": null,
    "speakers": null,
    "link": "https://vasterbotten.vansterpartiet.se/2025/04/25/har-kan-du-fira-1-maj-i-lanet/",
    "lat": 64.62652088632667,
    "lon": 16.656007290148413
  },
  {
    "location": "Visby",
    "region": "Gotlands län",
    "organizer": [
      "Vänsterpartiet"
    ],
    "time": "11:00",
    "startPoint": "Murgrönan",
    "address": null,
    "details": null,
    "speakers": null,
    "link": "https://www.facebook.com/events/648135521420314",
    "lat": 57.63716625328189,
    "lon": 18.29743766837055
  },
  {
    "location": "Vännäs",
    "region": "Västerbottens län",
    "organizer": [
      "Vänsterpartiet"
    ],
    "time": "12:00",
    "startPoint": "Torget",
    "address": null,
    "details": null,
    "speakers": [
      "Hanna Lindberg"
    ],
    "link": "https://vasterbotten.vansterpartiet.se/2025/04/25/har-kan-du-fira-1-maj-i-lanet/",
    "lat": 63.90876427023315,
    "lon": 19.75187730815378
  },
  {
    "location": "Västerås",
    "region": "Västmanlands län",
    "organizer": [
      "Vänsterpartiet"
    ],
    "time": "14:30",
    "startPoint": "Fiskartorget",
    "address": null,
    "details": null,
    "speakers": null,
    "link": null,
    "lat": 59.60782674692962,
    "lon": 16.545757770800268
  },
  {
    "location": "Växjö",
    "region": "Kronobergs län",
    "organizer": [
      "Vänsterpartiet"
    ],
    "time": "13:00",
    "startPoint": "Speaker's corner",
    "address": null,
    "details": null,
    "speakers": null,
    "link": "https://www.facebook.com/events/1480045146713865/",
    "lat": 56.878864340248704,
    "lon": 14.805100679659517
  },
  {
    "location": "Älmhult",
    "region": "Kronobergs län",
    "organizer": [
      "Vänsterpartiet"
    ],
    "time": "10:00",
    "startPoint": "Älmhult",
    "address": "Älmhult",
    "details": null,
    "speakers": null,
    "link": "https://kronoberg.vansterpartiet.se/event/1-maj-i-kronoberg",
    "lat": 56.54983229794703,
    "lon": 14.134769439697266
  },
  {
    "location": "Ängelholm",
    "region": "Skåne län",
    "organizer": [
      "Vänsterpartiet"
    ],
    "time": "12:00",
    "startPoint": "Nya torg",
    "address": null,
    "details": null,
    "speakers": null,
    "link": "https://www.facebook.com/events/1294781598266934",
    "lat": 56.24693867362165,
    "lon": 12.869511366152441
  },
  {
    "location": "Örebro",
    "region": "Örebro län",
    "organizer": [
      "Vänsterpartiet"
    ],
    "time": "12:00",
    "startPoint": "Slottsbacken",
    "address": null,
    "details": null,
    "speakers": [
      "Malcolm Momodou Jallow - riksdagsledamot (V)",
      "Zoe Mundt - Ung Vänster",
      "Elin Andersson - Hyresgästföreningen"
    ],
    "link": "https://www.facebook.com/events/659286173316440/",
    "lat": 59.26977335277318,
    "lon": 15.210487604272206
  },
  {
    "location": "Örnsköldsvik",
    "region": "Västernorrlands län",
    "organizer": [
      "Vänsterpartiet"
    ],
    "time": "11:30",
    "startPoint": "Arkentrappan",
    "address": null,
    "details": null,
    "speakers": [
      "Leonidas Aretakis - chefredaktör för Flamman",
      "m.fl"
    ],
    "link": "https://www.facebook.com/events/24297788203143179/",
    "lat": 63.2882906044824,
    "lon": 18.711678028630562
  },
  {
    "location": "Östersund",
    "region": "Jämtlands län",
    "organizer": [
      "Vänsterpartiet"
    ],
    "time": "12:00",
    "startPoint": "Studentplan, Campus",
    "address": null,
    "details": null,
    "speakers": null,
    "link": null,
    "lat": 63.17670149833612,
    "lon": 14.647938252019232
  },
  {
    "location": "Överkalix",
    "region": "Norrbottens län",
    "organizer": [
      "Vänsterpartiet"
    ],
    "time": "14:00",
    "startPoint": "Träffpunkten, Föreningarnas Hus",
    "address": "Föreningsgatan 11",
    "details": null,
    "speakers": null,
    "link": null,
    "lat": 66.32669463274014,
    "lon": 22.84695339229075
  },
  {
    "location": "Ale",
    "region": "Västra Götalands län",
    "organizer": [
      "Socialdemokraterna"
    ],
    "time": "10:45",
    "startPoint": "Folkets hus Älvängen",
    "address": null,
    "details": "Kl 11 Programstart Gamla Ica Älvängen",
    "speakers": [
      "Christine Martila",
      "mfl"
    ],
    "link": null,
    "lat": 57.962123,
    "lon": 12.131267
  },
  {
    "location": "Alingsås",
    "region": "Västra Götalands län",
    "organizer": [
      "Socialdemokraterna"
    ],
    "time": "12:45",
    "startPoint": "Folkets hus",
    "address": "Lilla Torget",
    "details": "Kl 13 Programstart Lilla Torget",
    "speakers": [
      "Kenneth G Forslund",
      "mfl"
    ],
    "link": null,
    "lat": 57.92902391363376,
    "lon": 12.53663206152851
  },
  {
    "location": "Alvesta",
    "region": "Kronobergs län",
    "organizer": [
      "Socialdemokraterna"
    ],
    "time": "11:00",
    "startPoint": "Hagaparken",
    "address": "Scenen i Hagaparken",
    "details": "Kl 11.45 Programstart Scenen i Hagaparken",
    "speakers": [
      "Thage G Peterson",
      "mfl"
    ],
    "link": null,
    "lat": 56.90401123596004,
    "lon": 14.553382874582894
  },
  {
    "location": "Arboga",
    "region": "Västmanlands län",
    "organizer": [
      "Socialdemokraterna"
    ],
    "time": "10:00",
    "startPoint": "Alövsparken",
    "address": "Alövsparken",
    "details": "10.00 programstart Alövsparken",
    "speakers": [
      "Yusuf Abdow",
      "mfl"
    ],
    "link": null,
    "lat": 59.39508905337252,
    "lon": 15.837547302508032
  },
  {
    "location": "Arjeplog",
    "region": "Norrbottens län",
    "organizer": [
      "Socialdemokraterna"
    ],
    "time": "13:30",
    "startPoint": "Kyrkströmsgården",
    "address": "Kyrkströmsgården",
    "details": "13.30 Programstart Kyrkströmsgården",
    "speakers": [
      "Anna Lundberg",
      "mfl"
    ],
    "link": null,
    "lat": 66.05296721503238,
    "lon": 17.886115551518742
  },
  {
    "location": "Arvidsjaur",
    "region": "Norrbottens län",
    "organizer": [
      "Socialdemokraterna"
    ],
    "time": "12:00",
    "startPoint": "Rotrundan, Medan",
    "address": "Rotrundan, Medan",
    "details": null,
    "speakers": [
      "Anna Lundberg",
      "mfl"
    ],
    "link": null,
    "lat": 65.59328872371033,
    "lon": 19.172359228396093
  },
  {
    "location": "Askersund",
    "region": "Örebro län",
    "organizer": [
      "Socialdemokraterna"
    ],
    "time": null,
    "startPoint": null,
    "address": null,
    "details": "Tid och plats har vi ej uppgift om.",
    "speakers": [
      "Theres Andersson",
      "mfl"
    ],
    "link": null,
    "lat": 58.88,
    "lon": 14.9
  },
  {
    "location": "Boden",
    "region": "Norrbottens län",
    "organizer": [
      "Socialdemokraterna"
    ],
    "time": "13:00",
    "startPoint": "Centrumtorget",
    "address": null,
    "details": "14.00 Programstart Folkets hus",
    "speakers": [
      "Matilda Ernkrans",
      "mfl"
    ],
    "link": null,
    "lat": 65.82411312263497,
    "lon": 21.685561180638615
  },
  {
    "location": "Bollebygd",
    "region": "Västra Götalands län",
    "organizer": [
      "Socialdemokraterna"
    ],
    "time": "11:00",
    "startPoint": "Biblioteksparken",
    "address": null,
    "details": "KL 11 Programstart Biblioteksparken",
    "speakers": [
      "Petter Löberg",
      "mfl"
    ],
    "link": null,
    "lat": 57.672445090458844,
    "lon": 12.571286202000922
  },
  {
    "location": "Borås",
    "region": "Västra Götalands län",
    "organizer": [
      "Socialdemokraterna"
    ],
    "time": "14:30",
    "startPoint": "Posttorget",
    "address": null,
    "details": "Kl 13 Programstart Stadsparken",
    "speakers": [
      "Elfva Barrio",
      "mfl"
    ],
    "link": null,
    "lat": 57.7211166635361,
    "lon": 12.937342286240892
  },
  {
    "location": "Boxholm",
    "region": "Östergötlands län",
    "organizer": [
      "Socialdemokraterna"
    ],
    "time": "10:30",
    "startPoint": "Stenbocksskolan",
    "address": null,
    "details": "11.00 Programstart Stora torget",
    "speakers": [
      "Kaisa Karro",
      "mfl"
    ],
    "link": null,
    "lat": 58.201594605895906,
    "lon": 15.050426244997652
  },
  {
    "location": "Degerfors",
    "region": "Örebro län",
    "organizer": [
      "Socialdemokraterna"
    ],
    "time": "10:00",
    "startPoint": "Folkets park",
    "address": null,
    "details": "Kl 10.30 Programstart Folkets park",
    "speakers": [
      "Elsa Alm",
      "mfl"
    ],
    "link": null,
    "lat": 59.24039697318777,
    "lon": 14.419478416966742
  },
  {
    "location": "Enköping",
    "region": "Uppsala län",
    "organizer": [
      "Socialdemokraterna"
    ],
    "time": "11:00",
    "startPoint": "Stora torget",
    "address": null,
    "details": "11.30 Programstart Skolparken.",
    "speakers": [
      "Stefan Löfven",
      "mfl"
    ],
    "link": null,
    "lat": 59.635465041391036,
    "lon": 17.078036785387667
  },
  {
    "location": "Eskilstuna",
    "region": "Södermanlands län",
    "organizer": [
      "Socialdemokraterna"
    ],
    "time": "14:00",
    "startPoint": "Fristadstorget",
    "address": "Fristadstorget",
    "details": "14.30 Programstart Fristadstorget",
    "speakers": [
      "Linda Palmetzhofer",
      "mfl"
    ],
    "link": null,
    "lat": 59.37070789225438,
    "lon": 16.513850212359106
  },
  {
    "location": "Fagersta",
    "region": "Västmanlands län",
    "organizer": [
      "Socialdemokraterna"
    ],
    "time": "13:00",
    "startPoint": "Folkets hus",
    "address": "Folkets hus",
    "details": "13.00 Programstart Folkets hus",
    "speakers": [
      "Åsa-Märta Sjöström",
      "mfl"
    ],
    "link": null,
    "lat": 60.00703201563757,
    "lon": 15.803697824740087
  },
  {
    "location": "Finspång",
    "region": "Östergötlands län",
    "organizer": [
      "Socialdemokraterna"
    ],
    "time": "10:00",
    "startPoint": "Bruksparken",
    "address": "Bruksparken",
    "details": "10.00 Programstart Bruksparken",
    "speakers": [
      "Per-Olof Sjö",
      "mfl"
    ],
    "link": null,
    "lat": 58.70887110176152,
    "lon": 15.775783539866097
  },
  {
    "location": "Flen",
    "region": "Södermanlands län",
    "organizer": [
      "Socialdemokraterna"
    ],
    "time": "12:00",
    "startPoint": "Sveaparken",
    "address": "Sveaparken",
    "details": "12.00 Programstart Sveaparken, Familjefest",
    "speakers": [
      "Sofia Amloh",
      "mfl"
    ],
    "link": null,
    "lat": 59.05571816528478,
    "lon": 16.587269784067757
  },
  {
    "location": "Gnesta",
    "region": "Södermanlands län",
    "organizer": [
      "Socialdemokraterna"
    ],
    "time": "10:00",
    "startPoint": "Strömmentorget",
    "address": "Strömmentorget",
    "details": "10.00 Programstart Strömmentorget",
    "speakers": [
      "Sofia Amloh",
      "mfl"
    ],
    "link": null,
    "lat": 59.048506933545916,
    "lon": 17.31078064454778
  },
  {
    "location": "Gällivare",
    "region": "Norrbottens län",
    "organizer": [
      "Socialdemokraterna"
    ],
    "time": "13:00",
    "startPoint": "Folkets hus",
    "address": "Folkets hus",
    "details": "Kl 14 Programstart Folkets hus",
    "speakers": [
      "Camilla Friberg",
      "mfl"
    ],
    "link": null,
    "lat": 67.13632545146349,
    "lon": 20.659493923449194
  },
  {
    "location": "Hallsberg",
    "region": "Örebro län",
    "organizer": [
      "Socialdemokraterna"
    ],
    "time": "13:00",
    "startPoint": "Kommunhuset",
    "address": "Kuben, Södra Allégatan 26",
    "details": "Programstart sker sedan på Kuben, Södra Allégatan 26",
    "speakers": [
      "Karin Sundin",
      "mfl"
    ],
    "link": null,
    "lat": 59.06544844548424,
    "lon": 15.104993105196627
  },
  {
    "location": "Hallstahammar",
    "region": "Västmanlands län",
    "organizer": [
      "Socialdemokraterna"
    ],
    "time": "14:00",
    "startPoint": "Torget",
    "address": "Torget",
    "details": "Kl 14 Programstart Torget",
    "speakers": [
      "Magnus Johansson",
      "mfl"
    ],
    "link": null,
    "lat": 59.617074597298874,
    "lon": 16.23854828299955
  },
  {
    "location": "Haparanda",
    "region": "Norrbottens län",
    "organizer": [
      "Socialdemokraterna"
    ],
    "time": "11:00",
    "startPoint": "Partiexp, Storgatan 80",
    "address": null,
    "details": "Kl 12 Programstart Viktoriatorget, Firar tillsammans med Finland",
    "speakers": [
      "Johannes Sundelin",
      "mfl"
    ],
    "link": null,
    "lat": 65.83635155456513,
    "lon": 24.13871598269907
  },
  {
    "location": "Heby",
    "region": "Uppsala län",
    "organizer": [
      "Socialdemokraterna"
    ],
    "time": "13:30",
    "startPoint": "Folkets hus",
    "address": "Folkets hus",
    "details": "13.30 Programstart Folkets hus",
    "speakers": [
      "Vivianne Macdisi",
      "mfl"
    ],
    "link": null,
    "lat": 59.94074529704473,
    "lon": 16.858206153046922
  },
  {
    "location": "Herrljunga",
    "region": "Västra Götalands län",
    "organizer": [
      "Socialdemokraterna"
    ],
    "time": "11:00",
    "startPoint": "framför kommunhuset",
    "address": "framför kommunhuset",
    "details": "Kl 11 Programstart framför kommunhuset",
    "speakers": [
      "Helen Eliasson",
      "mfl"
    ],
    "link": null,
    "lat": 58.076934529996755,
    "lon": 13.026527881884249
  },
  {
    "location": "Håbo",
    "region": "Uppsala län",
    "organizer": [
      "Socialdemokraterna"
    ],
    "time": "9:45",
    "startPoint": "Kommunhuset i Bålsta",
    "address": "Kommunhuset i Bålsta",
    "details": "9.45 Programstart Kommunhuset i Bålsta",
    "speakers": [
      "Helena Proos",
      "mfl"
    ],
    "link": null,
    "lat": 59.56847324028373,
    "lon": 17.52938175253803
  },
  {
    "location": "Hällefors",
    "region": "Örebro län",
    "organizer": [
      "Socialdemokraterna"
    ],
    "time": "13:00",
    "startPoint": "Folkets hus",
    "address": "Folkets hus",
    "details": "Kl 13 Programstart Folkets hus",
    "speakers": [],
    "link": null,
    "lat": 59.78427820212862,
    "lon": 14.523479461931856
  },
  {
    "location": "Jokkmokk",
    "region": "Norrbottens län",
    "organizer": [
      "Socialdemokraterna"
    ],
    "time": "11:00",
    "startPoint": "Folkets hus",
    "address": "Folkets hus",
    "details": "Kl 11.30 Folkets hus",
    "speakers": [
      "Linus Sköld",
      "mfl"
    ],
    "link": null,
    "lat": 66.60747930686512,
    "lon": 19.828963995241796
  },
  {
    "location": "Kalix",
    "region": "Norrbottens län",
    "organizer": [
      "Socialdemokraterna"
    ],
    "time": "11:00",
    "startPoint": "Folkets hus",
    "address": "Folkets hus",
    "details": "Kl 13 Programstart Folkets hus",
    "speakers": [
      "Samuel Pettersson",
      "mfl"
    ],
    "link": null,
    "lat": 65.85649317968375,
    "lon": 23.144635677599588
  },
  {
    "location": "Karlskoga",
    "region": "Örebro län",
    "organizer": [
      "Socialdemokraterna"
    ],
    "time": "11:00",
    "startPoint": "Torget",
    "address": "Torget",
    "details": "Kl 11.50 Programstart Torget",
    "speakers": [
      "Jenny Steen",
      "mfl"
    ],
    "link": null,
    "lat": 59.3265619624221,
    "lon": 14.523812055849707
  },
  {
    "location": "Katrineholm",
    "region": "Södermanlands län",
    "organizer": [
      "Socialdemokraterna"
    ],
    "time": "14:00",
    "startPoint": "Stortorget",
    "address": null,
    "details": "Kl 14.30 Programstart Stadsparken",
    "speakers": [],
    "link": null,
    "lat": 58.995930151691525,
    "lon": 16.205986261629736
  },
  {
    "location": "Kinda",
    "region": "Östergötlands län",
    "organizer": [
      "Socialdemokraterna"
    ],
    "time": "10:00",
    "startPoint": "Kuben Värgårdsskolan",
    "address": "Kuben Värgårdsskolan",
    "details": "Kl 10 Programstart Kuben Värgårdsskolan",
    "speakers": [
      "Mattias Ottosson",
      "mfl"
    ],
    "link": null,
    "lat": 57.98923287705296,
    "lon": 15.64029121451313
  },
  {
    "location": "Kiruna",
    "region": "Norrbottens län",
    "organizer": [
      "Socialdemokraterna"
    ],
    "time": "12:00",
    "startPoint": "Stadshuset",
    "address": "Stadshuset",
    "details": "Kl 12 Programstart Stadshuset",
    "speakers": [
      "Claes Danell",
      "mfl"
    ],
    "link": null,
    "lat": 67.8489626896832,
    "lon": 20.302663564943945
  },
  {
    "location": "Kumla",
    "region": "Örebro län",
    "organizer": [
      "Socialdemokraterna"
    ],
    "time": "12:39",
    "startPoint": "Scenen vid Kumlasjön",
    "address": "Scenen vid Kumlasjön",
    "details": "Kl 13 Scenen vid Kumlasjön",
    "speakers": [
      "mfl"
    ],
    "link": null,
    "lat": 59.12623880337215,
    "lon": 15.154815675923603
  },
  {
    "location": "Kungsör",
    "region": "Västmanlands län",
    "organizer": [
      "Socialdemokraterna"
    ],
    "time": "13:00",
    "startPoint": "Pinnparken",
    "address": "Pinnparken",
    "details": "13.00 Programstart Pinnparken",
    "speakers": [
      "Kenneth Österberg",
      "mfl"
    ],
    "link": null,
    "lat": 59.4250360538669,
    "lon": 16.098773002886446
  },
  {
    "location": "Kungälv",
    "region": "Västra Götalands län",
    "organizer": [
      "Socialdemokraterna"
    ],
    "time": "10:15",
    "startPoint": "Kastalakyrkan",
    "address": null,
    "details": "KL 11.15 Programstart Nytorget",
    "speakers": [
      "Emelie Stark",
      "mfl"
    ],
    "link": null,
    "lat": 57.86942707976512,
    "lon": 11.957375764977769
  },
  {
    "location": "Laxå",
    "region": "Örebro län",
    "organizer": [
      "Socialdemokraterna"
    ],
    "time": "14:00",
    "startPoint": "centrumtorget i Laxå",
    "address": "centrumtorget i Laxå",
    "details": "kl 14 Programstart centrumtorget i Laxå",
    "speakers": [
      "Nina Höijer",
      "mfl"
    ],
    "link": null,
    "lat": 58.98531780506661,
    "lon": 14.618719339632666
  },
  {
    "location": "Lekeberg",
    "region": "Örebro län",
    "organizer": [
      "Socialdemokraterna"
    ],
    "time": "13:00",
    "startPoint": "Torget",
    "address": "Torget",
    "details": "Kl 13 Programstart Torget",
    "speakers": [
      "Joakim Carlsson",
      "mfl"
    ],
    "link": null,
    "lat": 59.174531856962,
    "lon": 14.872642994450874
  },
  {
    "location": "Lessebo",
    "region": "Kronobergs län",
    "organizer": [
      "Socialdemokraterna"
    ],
    "time": "10:45",
    "startPoint": "Folkets hus Hovmantorp",
    "address": "Folkets hus",
    "details": "Kl 11 Programstart Folkets hus",
    "speakers": [
      "Malin Lauber",
      "mfl"
    ],
    "link": null,
    "lat": 56.78858667989299,
    "lon": 15.14096689250437
  },
  {
    "location": "Lindesberg",
    "region": "Örebro län",
    "organizer": [
      "Socialdemokraterna"
    ],
    "time": "12:00",
    "startPoint": "Norrtullstorget",
    "address": "Norrtullstorget",
    "details": "Kl 12.15 Programstart Norrtullstorget",
    "speakers": [
      "Denis Begic",
      "mfl"
    ],
    "link": null,
    "lat": 59.59437103058336,
    "lon": 15.223485589158376
  },
  {
    "location": "Linköping",
    "region": "Östergötlands län",
    "organizer": [
      "Socialdemokraterna"
    ],
    "time": "13:30",
    "startPoint": "Borggården",
    "address": null,
    "details": "15.00 Programstart Farbror Melins torg",
    "speakers": [
      "Malin Ragnegård",
      "mfl"
    ],
    "link": null,
    "lat": 58.40964831194754,
    "lon": 15.624451160692846
  },
  {
    "location": "Ljungby",
    "region": "Kronobergs län",
    "organizer": [
      "Socialdemokraterna"
    ],
    "time": "14:00",
    "startPoint": "Betlehem",
    "address": null,
    "details": "Kl 14.30 Godsmagasinet",
    "speakers": [
      "Monica Haider",
      "mfl"
    ],
    "link": null,
    "lat": 56.832567073820854,
    "lon": 13.942146062981923
  },
  {
    "location": "Ljusnarsberg",
    "region": "Örebro län",
    "organizer": [
      "Socialdemokraterna"
    ],
    "time": "13:00",
    "startPoint": "Malmtorget Kopparberg",
    "address": "Malmtorget Kopparberg",
    "details": "Kl 13 Programstart Malmtorget Kopparberg",
    "speakers": [
      "Denis Begic",
      "mfl"
    ],
    "link": null,
    "lat": 59.875747354190736,
    "lon": 14.996732712315863
  },
  {
    "location": "Luleå",
    "region": "Norrbottens län",
    "organizer": [
      "Socialdemokraterna"
    ],
    "time": "11:00",
    "startPoint": "Språklådan, Lärkan",
    "address": null,
    "details": "Kl 12.15 Stadsparken",
    "speakers": [
      "Matilda Ernkrans",
      "mfl"
    ],
    "link": null,
    "lat": 65.58336516283006,
    "lon": 22.139225721621187
  },
  {
    "location": "Mark",
    "region": "Västra Götalands län",
    "organizer": [
      "Socialdemokraterna"
    ],
    "time": "9:30",
    "startPoint": "Skene torg",
    "address": "Skene torg",
    "details": "9.30 Start firande Skene torg",
    "speakers": [
      "Jesper Eneroth",
      "mfl"
    ],
    "link": null,
    "lat": 57.48926720918329,
    "lon": 12.642778873705538
  },
  {
    "location": "Markaryd",
    "region": "Kronobergs län",
    "organizer": [
      "Socialdemokraterna"
    ],
    "time": "12:00",
    "startPoint": "Folkets Hus, Strömsnäsbruk",
    "address": "Folkets hus",
    "details": "Kl 12.30 Programstart Folkets hus",
    "speakers": [
      "Robrt Olesen",
      "mfl"
    ],
    "link": null,
    "lat": 56.55014573112202,
    "lon": 13.730232239031466
  },
  {
    "location": "Mjölby",
    "region": "Östergötlands län",
    "organizer": [
      "Socialdemokraterna"
    ],
    "time": "11:00",
    "startPoint": "Gästisparken",
    "address": "Gästisparken",
    "details": "Kl 11.45 programstart Gästisparken",
    "speakers": [
      "Lars Stjernkvist",
      "mfl"
    ],
    "link": null,
    "lat": 58.325108902179174,
    "lon": 15.127040863299047
  },
  {
    "location": "Motala",
    "region": "Östergötlands län",
    "organizer": [
      "Socialdemokraterna"
    ],
    "time": "10:30",
    "startPoint": "Stora torget",
    "address": "Folkets hus",
    "details": "Kl 11 programstart Folkets hus",
    "speakers": [
      "Lisa Nåbo",
      "mfl"
    ],
    "link": null,
    "lat": 58.536570917895205,
    "lon": 15.037395000981634
  },
  {
    "location": "Mölndal",
    "region": "Västra Götalands län",
    "organizer": [
      "Socialdemokraterna"
    ],
    "time": "11:15",
    "startPoint": "Folkets hus \"Möllan\"",
    "address": null,
    "details": "Kl 11.30 Programstart Alberts torg",
    "speakers": [
      "Eva Ramberg",
      "mfl"
    ],
    "link": null,
    "lat": 57.65792097638865,
    "lon": 12.014916658663427
  },
  {
    "location": "Nora",
    "region": "Örebro län",
    "organizer": [
      "Socialdemokraterna"
    ],
    "time": "10:00",
    "startPoint": "Svartälvsgatan 19",
    "address": "Svartälvsgatan 19",
    "details": "Kl 10 Programstart Svartälvsgatan 19",
    "speakers": [
      "Theres Andersson",
      "mfl"
    ],
    "link": null,
    "lat": 59.520944423581774,
    "lon": 15.03575992610422
  },
  {
    "location": "Norberg",
    "region": "Västmanlands län",
    "organizer": [
      "Socialdemokraterna"
    ],
    "time": "14:00",
    "startPoint": "Folkets park",
    "address": "Folkets park",
    "details": "14.00 Programstart Folkets park, Arbetarrörelens dag med seminarier och filmvisning",
    "speakers": [
      "mfl"
    ],
    "link": null,
    "lat": 60.083573788254405,
    "lon": 15.945848465489691
  },
  {
    "location": "Norrköping",
    "region": "Östergötlands län",
    "organizer": [
      "Socialdemokraterna"
    ],
    "time": "11:45",
    "startPoint": "Platinum Cars Arena",
    "address": null,
    "details": "12.30 Programstart Holmentorget",
    "speakers": [
      "Malin Ragnegård",
      "mfl"
    ],
    "link": null,
    "lat": 58.58565937666681,
    "lon": 16.17348003492225
  },
  {
    "location": "Nyköping",
    "region": "Södermanlands län",
    "organizer": [
      "Socialdemokraterna"
    ],
    "time": "13:30",
    "startPoint": "Stora torget",
    "address": null,
    "details": "14.00 Programstart Träffen, Olof Palmes väg 1",
    "speakers": [
      "Carolin Helmersson Olsson",
      "mfl"
    ],
    "link": null,
    "lat": 58.753056,
    "lon": 17.008611
  },
  {
    "location": "Oxelösund",
    "region": "Södermanlands län",
    "organizer": [
      "Socialdemokraterna"
    ],
    "time": "10:45",
    "startPoint": "D-skolan, Skeppargatan",
    "address": "D-skolan",
    "details": "11.30 Programstart D-skolan",
    "speakers": [
      "Caroline Helmersson Olsson",
      "mfl"
    ],
    "link": null,
    "lat": 58.671504740110606,
    "lon": 17.108667612337744
  },
  {
    "location": "Pajala",
    "region": "Norrbottens län",
    "organizer": [
      "Socialdemokraterna"
    ],
    "time": "11:00",
    "startPoint": "Torget",
    "address": "Folkets hus",
    "details": "Kl 12 Programstart Folkets hus",
    "speakers": [
      "Zara Leghissa",
      "mfl"
    ],
    "link": null,
    "lat": 67.21360792531338,
    "lon": 23.360847481526434
  },
  {
    "location": "Partille",
    "region": "Västra Götalands län",
    "organizer": [
      "Socialdemokraterna"
    ],
    "time": "10:30",
    "startPoint": "Kyrktorget",
    "address": "Stadsparken",
    "details": "KL 11 Programstart Stadsparken",
    "speakers": [
      "Kenneth G Forslund",
      "mfl"
    ],
    "link": null,
    "lat": 57.7394296748934,
    "lon": 12.106508732103975
  },
  {
    "location": "Piteå",
    "region": "Norrbottens län",
    "organizer": [
      "Socialdemokraterna"
    ],
    "time": "13:00",
    "startPoint": "P-däcket",
    "address": "Badhusparken",
    "details": "Kl 14 Programstart Badhusparken",
    "speakers": [
      "Fredrik Lundh Sammeli",
      "mfl"
    ],
    "link": null,
    "lat": 65.31850541765611,
    "lon": 21.478129864262883
  },
  {
    "location": "Sala",
    "region": "Västmanlands län",
    "organizer": [
      "Socialdemokraterna"
    ],
    "time": "12:00",
    "startPoint": "Torget",
    "address": "Torget",
    "details": "12.00 Programstart Torget, Familjedag,",
    "speakers": [
      "Olle Thorell",
      "mfl"
    ],
    "link": null,
    "lat": 59.92002196085241,
    "lon": 16.606208324956246
  },
  {
    "location": "Skinnskatteberg",
    "region": "Västmanlands län",
    "organizer": [
      "Socialdemokraterna"
    ],
    "time": "11:00",
    "startPoint": "allaaktivitetshuset Sture",
    "address": "allaaktivitetshuset Sture",
    "details": "11.00 Programstart allaaktivitetshuset Sture",
    "speakers": [
      "Åsa Eriksson",
      "mfl"
    ],
    "link": null,
    "lat": 59.82605928450416,
    "lon": 15.690583706164038
  },
  {
    "location": "Stockholm",
    "region": "Stockholms län",
    "organizer": [
      "Socialdemokraterna"
    ],
    "time": "12:00",
    "startPoint": "Humlegården",
    "address": "Norra bantorget",
    "details": "Kl 13. Programstart Norra bantorget",
    "speakers": [
      "mfl"
    ],
    "link": null,
    "lat": 59.339514685307535,
    "lon": 18.072741509531628
  },
  {
    "location": "Strängnäs",
    "region": "Södermanlands län",
    "organizer": [
      "Socialdemokraterna"
    ],
    "time": "13:00",
    "startPoint": "Ugglans park",
    "address": "Ugglans park",
    "details": "13.30 Programstart Ugglans park, Familjeaktiviteter",
    "speakers": [
      "Hans Ekström",
      "mfl"
    ],
    "link": null,
    "lat": 59.37716825733389,
    "lon": 17.03004670169321
  },
  {
    "location": "Surahammar",
    "region": "Västmanlands län",
    "organizer": [
      "Socialdemokraterna"
    ],
    "time": "11:00",
    "startPoint": "Torget",
    "address": "Torget",
    "details": "11.00 Programstart Torget, Familjedag, underhållning",
    "speakers": [
      "Mikael Damberg",
      "mfl"
    ],
    "link": null,
    "lat": 59.70711323600974,
    "lon": 16.22088861491648
  },
  {
    "location": "Svenljunga",
    "region": "Västra Götalands län",
    "organizer": [
      "Socialdemokraterna"
    ],
    "time": "10:00",
    "startPoint": "Svenljunga torg",
    "address": "Svenljunga torg",
    "details": "Kl 10 Programstart Svenljunga torg",
    "speakers": [
      "Elva Barrio",
      "mfl"
    ],
    "link": null,
    "lat": 57.495972793708475,
    "lon": 13.111118317174261
  },
  {
    "location": "Tierp",
    "region": "Uppsala län",
    "organizer": [
      "Socialdemokraterna"
    ],
    "time": "10:30",
    "startPoint": "Stora salutorget (mittemot kommunhuset)",
    "address": "Stora salutorget (mittemot kommunhuset)",
    "details": null,
    "speakers": [
      "Gustaf Lantz",
      "mfl"
    ],
    "link": null,
    "lat": 60.34269729107216,
    "lon": 17.517189502978002
  },
  {
    "location": "Tingsryd",
    "region": "Kronobergs län",
    "organizer": [
      "Socialdemokraterna"
    ],
    "time": "11:00",
    "startPoint": "Parken, Urshult",
    "address": "Parken, Urshult",
    "details": "Kl 11 Programstart Parken, Urshult",
    "speakers": [
      "Lena Hallengren",
      "mfl"
    ],
    "link": null,
    "lat": 56.53335270350546,
    "lon": 14.818698406743353
  },
  {
    "location": "Tranemo",
    "region": "Västra Götalands län",
    "organizer": [
      "Socialdemokraterna"
    ],
    "time": "11:15",
    "startPoint": "Vallgatan 1",
    "address": "Folkets hus Limmared",
    "details": "Kl 12 Programstart Folkets hus Limmared",
    "speakers": [
      "Elfva Barrio",
      "mfl"
    ],
    "link": null,
    "lat": 57.48062251094553,
    "lon": 13.352152348088568
  },
  {
    "location": "Trosa",
    "region": "Södermanlands län",
    "organizer": [
      "Socialdemokraterna"
    ],
    "time": "11:00",
    "startPoint": "Trosa torg",
    "address": "Trosa torg",
    "details": "11.30 Programstart Trosa torg, Familjedag",
    "speakers": [
      "Peter Bernhardsson",
      "mfl"
    ],
    "link": null,
    "lat": 58.89603382834823,
    "lon": 17.547487736010225
  },
  {
    "location": "Ulricehamn",
    "region": "Västra Götalands län",
    "organizer": [
      "Socialdemokraterna"
    ],
    "time": "10:30",
    "startPoint": "Järnvägstorget 1",
    "address": "Järnvägstorget 1",
    "details": "10.30 Programstart Järnvägstorget 1",
    "speakers": [
      "Ylva Lengberg",
      "mfl"
    ],
    "link": null,
    "lat": 57.793378197967385,
    "lon": 13.4128711224912
  },
  {
    "location": "Vadstena",
    "region": "Östergötlands län",
    "organizer": [
      "Socialdemokraterna"
    ],
    "time": "11:00",
    "startPoint": "Övre Hamnparken",
    "address": "Övre Hamnparken",
    "details": "11.00 Programstart Övre Hamnparken",
    "speakers": [
      "Lena Micko",
      "mfl"
    ],
    "link": null,
    "lat": 58.4468120722139,
    "lon": 14.882062912511175
  },
  {
    "location": "Valdemarsvik",
    "region": "Östergötlands län",
    "organizer": [
      "Socialdemokraterna"
    ],
    "time": null,
    "startPoint": null,
    "address": null,
    "details": null,
    "speakers": [
      "Johan Löfstrand",
      "mfl"
    ],
    "link": null,
    "lat": 58.2,
    "lon": 16.6
  },
  {
    "location": "Vingåker",
    "region": "Södermanlands län",
    "organizer": [
      "Socialdemokraterna"
    ],
    "time": "9:45",
    "startPoint": "Apoteksgatan 6",
    "address": null,
    "details": "10.00 programstart Tennisparken",
    "speakers": [
      "Monica Johansson",
      "mfl"
    ],
    "link": null,
    "lat": 59.045620913331874,
    "lon": 15.871926785039253
  },
  {
    "location": "Vårgårda",
    "region": "Västra Götalands län",
    "organizer": [
      "Socialdemokraterna"
    ],
    "time": "11:00",
    "startPoint": "Murartorget",
    "address": "Murartorget",
    "details": "Kl 11 Programstart Murartorget",
    "speakers": [
      "Helen Eliasson",
      "mfl"
    ],
    "link": null,
    "lat": 58.035291706515885,
    "lon": 12.806858182084401
  },
  {
    "location": "Västerås",
    "region": "Västmanlands län",
    "organizer": [
      "Socialdemokraterna"
    ],
    "time": "13:00",
    "startPoint": "Viktor Larsson plats",
    "address": "Viktor Larsson plats",
    "details": "12.00 Viktor Larssons plats Västerås Folkkör, 14.00 programstart Viktor Larsson plats",
    "speakers": [
      "Mikael Damberg",
      "mfl"
    ],
    "link": null,
    "lat": 59.612651793955635,
    "lon": 16.548772573733004
  },
  {
    "location": "Växjö",
    "region": "Kronobergs län",
    "organizer": [
      "Socialdemokraterna"
    ],
    "time": "14:15",
    "startPoint": "Partiexp. Liedbergsgatan 31",
    "address": null,
    "details": "Kl 15 Programstart Linnéparken",
    "speakers": [
      "Lena Hallengren",
      "mfl"
    ],
    "link": null,
    "lat": 56.882621919951276,
    "lon": 14.799944401311224
  },
  {
    "location": "Älmhult",
    "region": "Kronobergs län",
    "organizer": [
      "Socialdemokraterna"
    ],
    "time": "10:30",
    "startPoint": "Gunnar Gröpe",
    "address": "Torget",
    "details": "Kl 11 Programstart Torget",
    "speakers": [
      "Monica Haider",
      "mfl"
    ],
    "link": null,
    "lat": 56.55507397882715,
    "lon": 14.141966343449896
  },
  {
    "location": "Öckerö",
    "region": "Västra Götalands län",
    "organizer": [
      "Socialdemokraterna"
    ],
    "time": "11:00",
    "startPoint": "Länkarnas sommarhem Hönö",
    "address": null,
    "details": "Kl 11 Programstart Länkarnas sommarhem Hönö",
    "speakers": [
      "Janette Olsson",
      "mfl"
    ],
    "link": null,
    "lat": 57.67978814127887,
    "lon": 11.643001556658422
  },
  {
    "location": "Örebro",
    "region": "Örebro län",
    "organizer": [
      "Socialdemokraterna"
    ],
    "time": "14:30",
    "startPoint": "Slottsparken",
    "address": null,
    "details": "Kl 15 Programstart Slottsparken",
    "speakers": [
      "Peter Hultqvist",
      "mfl"
    ],
    "link": null,
    "lat": 59.27361081469509,
    "lon": 15.216744661593111
  },
  {
    "location": "Överkalix",
    "region": "Norrbottens län",
    "organizer": [
      "Socialdemokraterna"
    ],
    "time": "11:00",
    "startPoint": "Folkets hus",
    "address": null,
    "details": "Kl 12 Programstart Folkets hus",
    "speakers": [
      "Anders Öberg",
      "mfl"
    ],
    "link": null,
    "lat": 66.32938258996025,
    "lon": 22.839099884295145
  },
  {
    "location": "Övertorneå",
    "region": "Norrbottens län",
    "organizer": [
      "Socialdemokraterna"
    ],
    "time": "15:00",
    "startPoint": "Folkhögskolans aula",
    "address": null,
    "details": "Kl 15 Programstart Folkhögskolans aula",
    "speakers": [
      "Anders Öberg",
      "mfl"
    ],
    "link": null,
    "lat": 66.39061924041647,
    "lon": 23.66089010291035
  },
  {
    "location": "Trollhättan",
    "region": "Västra Götalands län",
    "organizer": [
      "Vänsterpartiet"
    ],
    "time": "11:00",
    "startPoint": "Maria Alberts Park",
    "address": null,
    "details": null,
    "speakers": null,
    "link": null,
    "lat": 58.2850,
    "lon": 12.2880
  },
  {
    "location": "Varberg",
    "region": "Hallands län",
    "organizer": [
      "Vänsterpartiet"
    ],
    "time": "12:00",
    "startPoint": "Torget",
    "address": null,
    "details": null,
    "speakers": null,
    "link": null,
    "lat": 57.1050,
    "lon": 12.2500
  },
  {
    "location": "Fagersta",
    "region": "Västmanlands län",
    "organizer": [
      "Vänsterpartiet"
    ],
    "time": "13:00",
    "startPoint": "Sveavägen 11b",
    "address": null,
    "details": null,
    "speakers": null,
    "link": null,
    "lat": 60.0030,
    "lon": 15.7950
  },
  {
    "location": "Avesta",
    "region": "Dalarnas län",
    "organizer": [
      "Socialdemokraterna"
    ],
    "time": "12:15",
    "startPoint": "Lilla torget",
    "address": null,
    "details": "Kl 13.15 Programstart Folkets park",
    "speakers": [
      "Elin Norén",
      "mfl"
    ],
    "link": null,
    "lat": 60.145556,
    "lon": 16.168333
  },
  {
    "location": "Bengtsfors",
    "region": "Västra Götalands län",
    "organizer": [
      "Socialdemokraterna"
    ],
    "time": "10:00",
    "startPoint": "Kunghällsplan, Storgatan 38",
    "address": null,
    "details": "Kl 10.30 Programstart Nygårdstorget",
    "speakers": [
      "Pontus Georgsson",
      "mfl"
    ],
    "link": null,
    "lat": 59.026389,
    "lon": 12.232778
  },
  {
    "location": "Borgholm",
    "region": "Kalmar län",
    "organizer": [
      "Socialdemokraterna"
    ],
    "time": "10:15",
    "startPoint": "Folkets hus",
    "address": null,
    "details": "Kl 10.30 Programstart Kaj Wieståhls Park",
    "speakers": [
      "Björn Petersson",
      "mfl"
    ],
    "link": null,
    "lat": 56.879167,
    "lon": 16.655833
  },
  {
    "location": "Borlänge",
    "region": "Dalarnas län",
    "organizer": [
      "Socialdemokraterna"
    ],
    "time": "11:00",
    "startPoint": "Sveatorget",
    "address": null,
    "details": "Kl 13 Programstart Cozmoz",
    "speakers": [
      "Lawen Redar",
      "mfl"
    ],
    "link": null,
    "lat": 60.485556,
    "lon": 15.436389
  },
  {
    "location": "Dals-Ed",
    "region": "Västra Götalands län",
    "organizer": [
      "Socialdemokraterna"
    ],
    "time": "15:00",
    "startPoint": "ABF-lokalen, Storgatan 30, Ed",
    "address": "Storgatan 30, Ed",
    "details": "Kl 15 Programstart ABF-lokalen, Storgatan 30, Ed",
    "speakers": [
      "Mats Wiking",
      "mfl"
    ],
    "link": null,
    "lat": 58.916667,
    "lon": 11.916667
  },
  {
    "location": "Emmaboda",
    "region": "Kalmar län",
    "organizer": [
      "Socialdemokraterna"
    ],
    "time": "13:00",
    "startPoint": "Centrumtorget",
    "address": null,
    "details": "KL 13.55 Programstart Folekts hus",
    "speakers": [
      "Frida Larsson",
      "mfl"
    ],
    "link": null,
    "lat": 56.616667,
    "lon": 15.55
  },
  {
    "location": "Falun",
    "region": "Dalarnas län",
    "organizer": [
      "Socialdemokraterna"
    ],
    "time": "10:30",
    "startPoint": "Stora torget",
    "address": null,
    "details": "Kl 11 Programstart Kulturhuset",
    "speakers": [
      "Kim Söderström",
      "mfl"
    ],
    "link": null,
    "lat": 60.607222,
    "lon": 15.631111
  },
  {
    "location": "Gagnef",
    "region": "Dalarnas län",
    "organizer": [
      "Socialdemokraterna"
    ],
    "time": null,
    "startPoint": "Lindbergshallen, Djurås",
    "address": null,
    "details": "Kl 14 Programstart med Familjedag i Lindbergshallen, Djurås",
    "speakers": [
      "Göran Greider",
      "mfl"
    ],
    "link": null,
    "lat": 60.6,
    "lon": 15.083333
  },
  {
    "location": "Gotland",
    "region": "Gotlands län",
    "organizer": [
      "Socialdemokraterna"
    ],
    "time": "14:00",
    "startPoint": "Östergravar vid Österport, Visby",
    "address": "Bingebyparken, Visby",
    "details": "Kl 10 Avgång Folkets hus, Rute. Kl 11 Programstart Folkets hus i Rute. Kl 14.30 Programstart Bingebyparken, Visby",
    "speakers": [
      "Gabriella Laveccia",
      "mfl"
    ],
    "link": null,
    "lat": 57.634722,
    "lon": 18.299167
  },
  {
    "location": "Hedemora",
    "region": "Dalarnas län",
    "organizer": [
      "Socialdemokraterna"
    ],
    "time": null,
    "startPoint": null,
    "address": "Hedemora",
    "details": "Kl 11 är det programstart i Hedemora",
    "speakers": [
      "Elin Norén",
      "mfl"
    ],
    "link": null,
    "lat": 60.276944,
    "lon": 15.987222
  },
  {
    "location": "Hultsfred",
    "region": "Kalmar län",
    "organizer": [
      "Socialdemokraterna"
    ],
    "time": "10:30",
    "startPoint": "Tors plan",
    "address": null,
    "details": "Kl 11 Programstart Parken",
    "speakers": [
      "Alexandra Svensson",
      "mfl"
    ],
    "link": null,
    "lat": 57.483333,
    "lon": 15.833333
  },
  {
    "location": "Kalmar",
    "region": "Kalmar län",
    "organizer": [
      "Socialdemokraterna"
    ],
    "time": "12:35",
    "startPoint": "Jenny Nyströmsgränd 2",
    "address": "Larmtorget",
    "details": "Kl 13 Programstart Larmtorget",
    "speakers": [
      "Åsa Westlund",
      "mfl"
    ],
    "link": null,
    "lat": 56.661389,
    "lon": 16.362778
  },
  {
    "location": "Leksand",
    "region": "Dalarnas län",
    "organizer": [
      "Socialdemokraterna"
    ],
    "time": null,
    "startPoint": "Brofästet i Leksand",
    "address": null,
    "details": "Kl 13 Programstart Brofästet i Leksand",
    "speakers": [
      "Sebastian Karlberg",
      "mfl"
    ],
    "link": null,
    "lat": 60.733333,
    "lon": 15
  },
  {
    "location": "Ludvika",
    "region": "Dalarnas län",
    "organizer": [
      "Socialdemokraterna"
    ],
    "time": "14:30",
    "startPoint": "Ludvika?",
    "address": "Folkets hus i Ludvika",
    "details": "Kl 15 Programstart Folkets hus i Ludvika",
    "speakers": [
      "Lars Isacsson",
      "mfl"
    ],
    "link": null,
    "lat": 60.133333,
    "lon": 15.183333
  },
  {
    "location": "Lysekil",
    "region": "Västra Götalands län",
    "organizer": [
      "Socialdemokraterna"
    ],
    "time": null,
    "startPoint": "Stadsparken",
    "address": null,
    "details": "Kl 13.30 Programstart Stadsparken",
    "speakers": [
      "Leif Pagrotsky",
      "mfl"
    ],
    "link": null,
    "lat": 58.2775,
    "lon": 11.4425
  },
  {
    "location": "Malung-Sälen",
    "region": "Dalarnas län",
    "organizer": [
      "Socialdemokraterna"
    ],
    "time": null,
    "startPoint": "Orrskogens Folkets park",
    "address": null,
    "details": "Kl 13 Orrskogens folkets park",
    "speakers": [
      "Mari Rustad",
      "mfl"
    ],
    "link": null,
    "lat": 60.683333,
    "lon": 13.733333
  },
  {
    "location": "Mellerud",
    "region": "Västra Götalands län",
    "organizer": [
      "Socialdemokraterna"
    ],
    "time": "12:30",
    "startPoint": "Idrottshuset",
    "address": null,
    "details": "Kl 13 Programstart Köpmanstorget",
    "speakers": [
      "Louise Thunström",
      "mfl"
    ],
    "link": null,
    "lat": 58.7,
    "lon": 12.466667
  },
  {
    "location": "Mora",
    "region": "Dalarnas län",
    "organizer": [
      "Socialdemokraterna"
    ],
    "time": "13:30",
    "startPoint": "Fridhemsplan",
    "address": null,
    "details": "Kl 14 Programstart Stapelhusparken vid kommunhuset",
    "speakers": [
      "Diyar Cicek",
      "mfl"
    ],
    "link": null,
    "lat": 61.016667,
    "lon": 14.533333
  },
  {
    "location": "Munkedal",
    "region": "Västra Götalands län",
    "organizer": [
      "Socialdemokraterna"
    ],
    "time": "12:00",
    "startPoint": "Torget",
    "address": null,
    "details": "Kl 12 Programstart Torget",
    "speakers": [
      "Mats Wiking",
      "mfl"
    ],
    "link": null,
    "lat": 58.483333,
    "lon": 11.683333
  },
  {
    "location": "Mönsterås",
    "region": "Kalmar län",
    "organizer": [
      "Socialdemokraterna"
    ],
    "time": "11:00",
    "startPoint": "Vattenpalatset",
    "address": null,
    "details": "Kl 11.30 Programstart Torget",
    "speakers": [
      "Ola Möller",
      "mfl"
    ],
    "link": null,
    "lat": 57.033333,
    "lon": 16.45
  },
  {
    "location": "Nybro",
    "region": "Kalmar län",
    "organizer": [
      "Socialdemokraterna"
    ],
    "time": "11:00",
    "startPoint": "Qvarnasläts Hembygdsgård",
    "address": null,
    "details": "Kl 11 Programstart Qvarnasläts Hembygdsgård",
    "speakers": [
      "Åsa Westlund",
      "mfl"
    ],
    "link": null,
    "lat": 56.733333,
    "lon": 15.9
  },
  {
    "location": "Orsa",
    "region": "Dalarnas län",
    "organizer": [
      "Socialdemokraterna"
    ],
    "time": "12:30",
    "startPoint": "Dalaparken",
    "address": null,
    "details": "Kl 12.30 programstart Dalaparken",
    "speakers": [
      "Diyar Cicek",
      "mfl"
    ],
    "link": null,
    "lat": 61.116667,
    "lon": 14.616667
  },
  {
    "location": "Oskarshamn",
    "region": "Kalmar län",
    "organizer": [
      "Socialdemokraterna"
    ],
    "time": "12:30",
    "startPoint": "Solbacka",
    "address": null,
    "details": "Kl 13 Programstart Stadsparken",
    "speakers": [
      "Ola Möller",
      "mfl"
    ],
    "link": null,
    "lat": 57.265,
    "lon": 16.45
  },
  {
    "location": "Smedjebacken",
    "region": "Dalarnas län",
    "organizer": [
      "Socialdemokraterna"
    ],
    "time": "11:00",
    "startPoint": "Torget i Smedjebacken",
    "address": "Torget Smedjebacken",
    "details": "Kl 12.45 Programstart Torget Smedjebacken",
    "speakers": [
      "Åsa Eriksson",
      "mfl"
    ],
    "link": null,
    "lat": 60.13962448910673,
    "lon": 15.414161682128908
  },
  {
    "location": "Sotenäs",
    "region": "Västra Götalands län",
    "organizer": [
      "Socialdemokraterna"
    ],
    "time": "11:00",
    "startPoint": "Gammelgården, Hunnebostrand",
    "address": null,
    "details": "Kl 11 Programstart Gammelgården, Hunnebostrand",
    "speakers": [
      "Elvira Thunström",
      "mfl"
    ],
    "link": null,
    "lat": 58.366667,
    "lon": 11.25
  },
  {
    "location": "Strömstad",
    "region": "Västra Götalands län",
    "organizer": [
      "Socialdemokraterna"
    ],
    "time": "14:00",
    "startPoint": "Stadsparken",
    "address": null,
    "details": "Kl 14 Programstart Stadsparken",
    "speakers": [
      "Louise Åsenfors",
      "mfl"
    ],
    "link": null,
    "lat": 58.933333,
    "lon": 11.166667
  },
  {
    "location": "Säter",
    "region": "Dalarnas län",
    "organizer": [
      "Socialdemokraterna"
    ],
    "time": "10:00",
    "startPoint": "Klockarskolan",
    "address": null,
    "details": "Kl 11 Programstart Folkets hus i Säter",
    "speakers": [
      "Elin Norén",
      "mfl"
    ],
    "link": null,
    "lat": 60.35,
    "lon": 15.75
  },
  {
    "location": "Tanum",
    "region": "Västra Götalands län",
    "organizer": [
      "Socialdemokraterna"
    ],
    "time": "11:00",
    "startPoint": "Centrumparken",
    "address": null,
    "details": "Kl 11 programstart Centrumparken",
    "speakers": [
      "Madeleine Myrström Kamb",
      "mfl"
    ],
    "link": null,
    "lat": 58.716667,
    "lon": 11.316667
  },
  {
    "location": "Trollhättan",
    "region": "Västra Götalands län",
    "organizer": [
      "Socialdemokraterna"
    ],
    "time": "10:30",
    "startPoint": "Drottningtorget",
    "address": null,
    "details": "Kl 11 Programstart Drottningtorget",
    "speakers": [
      "Adnan Dibrani",
      "mfl"
    ],
    "link": null,
    "lat": 58.282778,
    "lon": 12.289167
  },
  {
    "location": "Uddevalla",
    "region": "Västra Götalands län",
    "organizer": [
      "Socialdemokraterna"
    ],
    "time": "10:30",
    "startPoint": "Kungstorget",
    "address": null,
    "details": "Kl 11 Programstart Museiparken",
    "speakers": [
      "Wanja Lundby Wedin",
      "mfl"
    ],
    "link": null,
    "lat": 58.349167,
    "lon": 11.938056
  },
  {
    "location": "Vansbro",
    "region": "Dalarnas län",
    "organizer": [
      "Socialdemokraterna"
    ],
    "time": null,
    "startPoint": "Medborgarhuset",
    "address": null,
    "details": "Kl 11 Programstart Medborgarhuset",
    "speakers": [
      "Jörgen Norén",
      "mfl"
    ],
    "link": null,
    "lat": 60.516667,
    "lon": 14.216667
  },
  {
    "location": "Vimmerby",
    "region": "Kalmar län",
    "organizer": [
      "Socialdemokraterna"
    ],
    "time": "15:00",
    "startPoint": "Folkets park",
    "address": null,
    "details": "Kl 15.30 Programstart Folkets park",
    "speakers": [
      "David Fernhed",
      "mfl"
    ],
    "link": null,
    "lat": 57.666667,
    "lon": 15.85
  },
  {
    "location": "Vänersborg",
    "region": "Västra Götalands län",
    "organizer": [
      "Socialdemokraterna"
    ],
    "time": "11:00",
    "startPoint": "Plantagen",
    "address": null,
    "details": "Kl 11 Programstart Plantagen",
    "speakers": [
      "Jonathan Svensson",
      "mfl"
    ],
    "link": null,
    "lat": 58.380556,
    "lon": 12.325
  },
  {
    "location": "Västervik",
    "region": "Kalmar län",
    "organizer": [
      "Socialdemokraterna"
    ],
    "time": "11:45",
    "startPoint": "Spötorget",
    "address": null,
    "details": "KL 12 Programstart Stadsparken",
    "speakers": [
      "Laila Naraghi",
      "mfl"
    ],
    "link": null,
    "lat": 57.756389,
    "lon": 16.631667
  },
  {
    "location": "Älvdalen",
    "region": "Dalarnas län",
    "organizer": [
      "Socialdemokraterna"
    ],
    "time": "13:00",
    "startPoint": "Tingshusparken",
    "address": null,
    "details": "Kl 13 Programstart Tingshusparken",
    "speakers": [
      "Marie Olsson",
      "mfl"
    ],
    "link": null,
    "lat": 61.233333,
    "lon": 14.033333
  },
  {
    "location": "Hudiksvall",
    "region": "Gävleborgs län",
    "organizer": [
      "Socialdemokraterna"
    ],
    "time": "12:30",
    "startPoint": "Läroverket",
    "address": null,
    "details": "",
    "speakers": [
      "Elsa Löfgren", "Tommy Wreeth (Förbundsordförande Transport)", "Liza di Paolo Sandberg (Förbundsordförande SKPF)",
      "mfl"
    ],
    "link": null,
    "lat": 61.7237,
    "lon": 17.1043
  }

]